[
  {
    "id": "R-0001",
    "name": "Christy",
    "role": "professional",
    "city": "Karachi",
    "area": "Clifton",
    "budget_pkr": 25000,
    "sleep_schedule": "night_owl",
    "cleanliness": "high",
    "noise_tolerance": "low",
    "study_habits": "library",
    "food_pref": "mixed",
    "smoking": "no",
    "guests_freq": "daily",
    "languages": [
      "Punjabi",
      "Urdu"
    ],
    "gender_pref": "female",
    "anchor_location": {
      "label": "Karachi University",
      "lat": 24.94,
      "lng": 67.12
    },
    "geo": {
      "lat": 24.945845,
      "lng": 67.115749,
      "source": "gps"
    },
    "raw_text": "Film serve arm face board marriage life after small.",
    "contact": {
      "phone": "+923761691525",
      "whatsapp": true,
      "email": "jgonzales@example.net"
    },
    "created_at": "2025-09-30T17:46:58.529143"
  },
  {
    "id": "R-0002",
    "name": "David",
    "role": "student",
    "city": "Faisalabad",
    "area": "D Ground",
    "budget_pkr": 20000,
    "sleep_schedule": "night_owl",
    "cleanliness": "low",
    "noise_tolerance": "high",
    "study_habits": "library",
    "food_pref": "non-veg",
    "smoking": "no",
    "guests_freq": "rare",
    "languages": [
      "English",
      "Pashto"
    ],
    "gender_pref": "male",
    "anchor_location": {
      "label": "Karachi University",
      "lat": 24.94,
      "lng": 67.12
    },
    "geo": {
      "lat": 24.935263,
      "lng": 67.123701,
      "source": "gps"
    },
    "raw_text": "Prepare production international age suggest push start.",
    "contact": {
      "phone": "+923694687680",
      "whatsapp": true,
      "email": "ksmith@example.net"
    },
    "created_at": "2025-09-30T17:46:58.529143"
  },
  {
    "id": "R-0003",
    "name": "Barbara",
    "role": "professional",
    "city": "Faisalabad",
    "area": "Peoples Colony",
    "budget_pkr": 18000,
    "sleep_schedule": "night_owl",
    "cleanliness": "high",
    "noise_tolerance": "high",
    "study_habits": "online_classes",
    "food_pref": "mixed",
    "smoking": "yes",
    "guests_freq": "rare",
    "languages": [
      "English",
      "Pashto"
    ],
    "gender_pref": "male",
    "anchor_location": {
      "label": "FAST University, Lahore",
      "lat": 31.4811,
      "lng": 74.3035
    },
    "geo": {
      "lat": 31.475647,
      "lng": 74.308108,
      "source": "gps"
    },
    "raw_text": "Would court rule hundred large young sense watch sea drive goal.",
    "contact": {
      "phone": "+923993555139",
      "whatsapp": true,
      "email": "devin58@example.com"
    },
    "created_at": "2025-09-30T17:46:58.529143"
  },
  {
    "id": "R-0004",
    "name": "Todd",
    "role": "student",
    "city": "Rawalpindi",
    "area": "Satellite Town",
    "budget_pkr": 20000,
    "sleep_schedule": "night_owl",
    "cleanliness": "high",
    "noise_tolerance": "high",
    "study_habits": "online_classes",
    "food_pref": "veg",
    "smoking": "no",
    "guests_freq": "rare",
    "languages": [
      "English",
      "Urdu"
    ],
    "gender_pref": "any",
    "anchor_location": {
      "label": "Punjab University, Lahore",
      "lat": 31.492,
      "lng": 74.3077
    },
    "geo": {
      "lat": 31.493147,
      "lng": 74.310591,
      "source": "gps"
    },
    "raw_text": "Course claim school I free fine production note.",
    "contact": {
      "phone": "+923526054828",
      "whatsapp": true,
      "email": "leslie90@example.net"
    },
    "created_at": "2025-09-30T17:46:58.529143"
  },
  {
    "id": "R-0005",
    "name": "Cynthia",
    "role": "student",
    "city": "Faisalabad",
    "area": "D Ground",
    "budget_pkr": 15000,
    "sleep_schedule": "night_owl",
    "cleanliness": "high",
    "noise_tolerance": "low",
    "study_habits": "online_classes",
    "food_pref": "non-veg",
    "smoking": "no",
    "guests_freq": "often",
    "languages": [
      "Urdu",
      "Pashto"
    ],
    "gender_pref": "female",
    "anchor_location": {
      "label": "NUST, Islamabad",
      "lat": 33.6426,
      "lng": 72.9906
    },
    "geo": {
      "lat": 33.637147,
      "lng": 72.997854,
      "source": "gps"
    },
    "raw_text": "Avoid pay yes nature heavy different part director.",
    "contact": {
      "phone": "+923153047093",
      "whatsapp": true,
      "email": "brianlarson@example.com"
    },
    "created_at": "2025-09-30T17:46:58.529143"
  },
  {
    "id": "R-0006",
    "name": "Gabrielle",
    "role": "student",
    "city": "Karachi",
    "area": "Nazimabad",
    "budget_pkr": 18000,
    "sleep_schedule": "early_bird",
    "cleanliness": "low",
    "noise_tolerance": "low",
    "study_habits": "online_classes",
    "food_pref": "mixed",
    "smoking": "yes",
    "guests_freq": "daily",
    "languages": [
      "Urdu",
      "Pashto"
    ],
    "gender_pref": "any",
    "anchor_location": {
      "label": "Karachi University",
      "lat": 24.94,
      "lng": 67.12
    },
    "geo": {
      "lat": 24.939739,
      "lng": 67.11804,
      "source": "gps"
    },
    "raw_text": "Newspaper building those situation state civil never its red firm.",
    "contact": {
      "phone": "+923354512541",
      "whatsapp": true,
      "email": "emily14@example.org"
    },
    "created_at": "2025-09-30T17:46:58.531967"
  },
  {
    "id": "R-0007",
    "name": "Olivia",
    "role": "student",
    "city": "Islamabad",
    "area": "Blue Area",
    "budget_pkr": 25000,
    "sleep_schedule": "night_owl",
    "cleanliness": "medium",
    "noise_tolerance": "low",
    "study_habits": "online_classes",
    "food_pref": "veg",
    "smoking": "no",
    "guests_freq": "rare",
    "languages": [
      "Punjabi",
      "English"
    ],
    "gender_pref": "male",
    "anchor_location": {
      "label": "Clifton Offices, Karachi",
      "lat": 24.813,
      "lng": 67.03
    },
    "geo": {
      "lat": 24.818061,
      "lng": 67.026723,
      "source": "gps"
    },
    "raw_text": "Entire let begin change bit production often contain night measure score center attack economy.",
    "contact": {
      "phone": "+923473870882",
      "whatsapp": true,
      "email": "tylerrussell@example.net"
    },
    "created_at": "2025-09-30T17:46:58.531967"
  },
  {
    "id": "R-0008",
    "name": "Michael",
    "role": "professional",
    "city": "Islamabad",
    "area": "G-11",
    "budget_pkr": 22000,
    "sleep_schedule": "night_owl",
    "cleanliness": "low",
    "noise_tolerance": "high",
    "study_habits": "library",
    "food_pref": "mixed",
    "smoking": "no",
    "guests_freq": "sometimes",
    "languages": [
      "Pashto",
      "Urdu"
    ],
    "gender_pref": "any",
    "anchor_location": {
      "label": "Clifton Offices, Karachi",
      "lat": 24.813,
      "lng": 67.03
    },
    "geo": {
      "lat": 24.811115,
      "lng": 67.033902,
      "source": "gps"
    },
    "raw_text": "Real population itself everyone product box edge force require tree last human business.",
    "contact": {
      "phone": "+923152108785",
      "whatsapp": true,
      "email": "eric81@example.net"
    },
    "created_at": "2025-09-30T17:46:58.531967"
  },
  {
    "id": "R-0009",
    "name": "Amber",
    "role": "student",
    "city": "Lahore",
    "area": "Johar Town",
    "budget_pkr": 18000,
    "sleep_schedule": "flex",
    "cleanliness": "low",
    "noise_tolerance": "high",
    "study_habits": "home",
    "food_pref": "veg",
    "smoking": "yes",
    "guests_freq": "sometimes",
    "languages": [
      "Urdu",
      "Pashto"
    ],
    "gender_pref": "any",
    "anchor_location": {
      "label": "Blue Area Office, Islamabad",
      "lat": 33.716,
      "lng": 73.065
    },
    "geo": {
      "lat": 33.713849,
      "lng": 73.062667,
      "source": "gps"
    },
    "raw_text": "Agreement thought matter guess hope cold model hope her soldier job.",
    "contact": {
      "phone": "+923957264606",
      "whatsapp": true,
      "email": "bwilliams@example.net"
    },
    "created_at": "2025-09-30T17:46:58.531967"
  },
  {
    "id": "R-0010",
    "name": "Lisa",
    "role": "student",
    "city": "Islamabad",
    "area": "Blue Area",
    "budget_pkr": 15000,
    "sleep_schedule": "early_bird",
    "cleanliness": "medium",
    "noise_tolerance": "low",
    "study_habits": "library",
    "food_pref": "mixed",
    "smoking": "no",
    "guests_freq": "daily",
    "languages": [
      "Urdu",
      "English"
    ],
    "gender_pref": "any",
    "anchor_location": {
      "label": "Industrial Zone, Faisalabad",
      "lat": 31.418,
      "lng": 73.079
    },
    "geo": {
      "lat": 31.416359,
      "lng": 73.069767,
      "source": "gps"
    },
    "raw_text": "Team activity above join commercial move standard.",
    "contact": {
      "phone": "+923251947866",
      "whatsapp": true,
      "email": "kevin96@example.net"
    },
    "created_at": "2025-09-30T17:46:58.531967"
  },
  {
    "id": "R-0011",
    "name": "Derrick",
    "role": "professional",
    "city": "Islamabad",
    "area": "Blue Area",
    "budget_pkr": 22000,
    "sleep_schedule": "night_owl",
    "cleanliness": "high",
    "noise_tolerance": "high",
    "study_habits": "home",
    "food_pref": "non-veg",
    "smoking": "yes",
    "guests_freq": "sometimes",
    "languages": [
      "English",
      "Urdu"
    ],
    "gender_pref": "any",
    "anchor_location": {
      "label": "Clifton Offices, Karachi",
      "lat": 24.813,
      "lng": 67.03
    },
    "geo": {
      "lat": 24.806131,
      "lng": 67.023181,
      "source": "gps"
    },
    "raw_text": "While institution manage someone ask best coach language list dog idea hear.",
    "contact": {
      "phone": "+923403703932",
      "whatsapp": true,
      "email": "erindiaz@example.com"
    },
    "created_at": "2025-09-30T17:46:58.531967"
  },
  {
    "id": "R-0012",
    "name": "Judith",
    "role": "professional",
    "city": "Lahore",
    "area": "Johar Town",
    "budget_pkr": 25000,
    "sleep_schedule": "early_bird",
    "cleanliness": "low",
    "noise_tolerance": "high",
    "study_habits": "home",
    "food_pref": "mixed",
    "smoking": "yes",
    "guests_freq": "often",
    "languages": [
      "English",
      "Urdu"
    ],
    "gender_pref": "any",
    "anchor_location": {
      "label": "FAST University, Lahore",
      "lat": 31.4811,
      "lng": 74.3035
    },
    "geo": {
      "lat": 31.48723,
      "lng": 74.311719,
      "source": "gps"
    },
    "raw_text": "Move deal peace would ball move into job.",
    "contact": {
      "phone": "+923143184249",
      "whatsapp": true,
      "email": "tbrooks@example.net"
    },
    "created_at": "2025-09-30T17:46:58.531967"
  },
  {
    "id": "R-0013",
    "name": "Douglas",
    "role": "student",
    "city": "Islamabad",
    "area": "F-10",
    "budget_pkr": 18000,
    "sleep_schedule": "night_owl",
    "cleanliness": "high",
    "noise_tolerance": "low",
    "study_habits": "online_classes",
    "food_pref": "veg",
    "smoking": "yes",
    "guests_freq": "daily",
    "languages": [
      "English",
      "Pashto"
    ],
    "gender_pref": "female",
    "anchor_location": {
      "label": "Karachi University",
      "lat": 24.94,
      "lng": 67.12
    },
    "geo": {
      "lat": 24.93572,
      "lng": 67.123765,
      "source": "gps"
    },
    "raw_text": "Ball ten address fact wear service rock.",
    "contact": {
      "phone": "+923861628773",
      "whatsapp": true,
      "email": "meganthomas@example.com"
    },
    "created_at": "2025-09-30T17:46:58.534567"
  },
  {
    "id": "R-0014",
    "name": "Melissa",
    "role": "professional",
    "city": "Faisalabad",
    "area": "D Ground",
    "budget_pkr": 18000,
    "sleep_schedule": "early_bird",
    "cleanliness": "low",
    "noise_tolerance": "medium",
    "study_habits": "home",
    "food_pref": "non-veg",
    "smoking": "yes",
    "guests_freq": "daily",
    "languages": [
      "Punjabi",
      "Urdu"
    ],
    "gender_pref": "any",
    "anchor_location": {
      "label": "IBA, Karachi",
      "lat": 24.9323,
      "lng": 67.1123
    },
    "geo": {
      "lat": 24.926404,
      "lng": 67.109147,
      "source": "gps"
    },
    "raw_text": "House trip change operation sister off hand describe try fast.",
    "contact": {
      "phone": "+923294376182",
      "whatsapp": true,
      "email": "amy50@example.net"
    },
    "created_at": "2025-09-30T17:46:58.534567"
  },
  {
    "id": "R-0015",
    "name": "Stephen",
    "role": "professional",
    "city": "Rawalpindi",
    "area": "Saddar",
    "budget_pkr": 25000,
    "sleep_schedule": "flex",
    "cleanliness": "high",
    "noise_tolerance": "high",
    "study_habits": "library",
    "food_pref": "veg",
    "smoking": "no",
    "guests_freq": "sometimes",
    "languages": [
      "English",
      "Urdu"
    ],
    "gender_pref": "female",
    "anchor_location": {
      "label": "FAST University, Lahore",
      "lat": 31.4811,
      "lng": 74.3035
    },
    "geo": {
      "lat": 31.484411,
      "lng": 74.309794,
      "source": "gps"
    },
    "raw_text": "Today a few not degree democratic available thing between provide professor religious.",
    "contact": {
      "phone": "+923095442440",
      "whatsapp": true,
      "email": "jacob11@example.org"
    },
    "created_at": "2025-09-30T17:46:58.534567"
  },
  {
    "id": "R-0016",
    "name": "Jamie",
    "role": "student",
    "city": "Faisalabad",
    "area": "D Ground",
    "budget_pkr": 18000,
    "sleep_schedule": "flex",
    "cleanliness": "medium",
    "noise_tolerance": "medium",
    "study_habits": "library",
    "food_pref": "veg",
    "smoking": "no",
    "guests_freq": "daily",
    "languages": [
      "Urdu",
      "Punjabi"
    ],
    "gender_pref": "male",
    "anchor_location": {
      "label": "Blue Area Office, Islamabad",
      "lat": 33.716,
      "lng": 73.065
    },
    "geo": {
      "lat": 33.718812,
      "lng": 73.064473,
      "source": "gps"
    },
    "raw_text": "Expect put push thought guy culture.",
    "contact": {
      "phone": "+923648047664",
      "whatsapp": true,
      "email": "alee@example.net"
    },
    "created_at": "2025-09-30T17:46:58.534567"
  },
  {
    "id": "R-0017",
    "name": "Shannon",
    "role": "professional",
    "city": "Lahore",
    "area": "Model Town",
    "budget_pkr": 30000,
    "sleep_schedule": "flex",
    "cleanliness": "high",
    "noise_tolerance": "high",
    "study_habits": "library",
    "food_pref": "mixed",
    "smoking": "yes",
    "guests_freq": "often",
    "languages": [
      "Punjabi",
      "English"
    ],
    "gender_pref": "female",
    "anchor_location": {
      "label": "Karachi University",
      "lat": 24.94,
      "lng": 67.12
    },
    "geo": {
      "lat": 24.93339,
      "lng": 67.121853,
      "source": "gps"
    },
    "raw_text": "Plan fear film stock ball work sign wait yet environment parent.",
    "contact": {
      "phone": "+923183589250",
      "whatsapp": true,
      "email": "karen62@example.net"
    },
    "created_at": "2025-09-30T17:46:58.534567"
  },
  {
    "id": "R-0018",
    "name": "Juan",
    "role": "professional",
    "city": "Islamabad",
    "area": "G-11",
    "budget_pkr": 22000,
    "sleep_schedule": "early_bird",
    "cleanliness": "low",
    "noise_tolerance": "low",
    "study_habits": "online_classes",
    "food_pref": "non-veg",
    "smoking": "no",
    "guests_freq": "often",
    "languages": [
      "Punjabi",
      "English"
    ],
    "gender_pref": "male",
    "anchor_location": {
      "label": "Punjab University, Lahore",
      "lat": 31.492,
      "lng": 74.3077
    },
    "geo": {
      "lat": 31.48699,
      "lng": 74.314491,
      "source": "gps"
    },
    "raw_text": "Especially weight Democrat church spend election recognize second away decade upon east.",
    "contact": {
      "phone": "+923458722625",
      "whatsapp": true,
      "email": "melissalee@example.net"
    },
    "created_at": "2025-09-30T17:46:58.534567"
  },
  {
    "id": "R-0019",
    "name": "Michelle",
    "role": "student",
    "city": "Rawalpindi",
    "area": "Satellite Town",
    "budget_pkr": 22000,
    "sleep_schedule": "flex",
    "cleanliness": "high",
    "noise_tolerance": "high",
    "study_habits": "home",
    "food_pref": "non-veg",
    "smoking": "no",
    "guests_freq": "often",
    "languages": [
      "Punjabi",
      "English"
    ],
    "gender_pref": "male",
    "anchor_location": {
      "label": "Blue Area Office, Islamabad",
      "lat": 33.716,
      "lng": 73.065
    },
    "geo": {
      "lat": 33.717845,
      "lng": 73.059844,
      "source": "gps"
    },
    "raw_text": "Hour throw attorney cup inside face common draw office rather.",
    "contact": {
      "phone": "+923537917092",
      "whatsapp": true,
      "email": "jeffreymckay@example.com"
    },
    "created_at": "2025-09-30T17:46:58.536627"
  },
  {
    "id": "R-0020",
    "name": "Martin",
    "role": "professional",
    "city": "Faisalabad",
    "area": "Peoples Colony",
    "budget_pkr": 18000,
    "sleep_schedule": "night_owl",
    "cleanliness": "medium",
    "noise_tolerance": "high",
    "study_habits": "online_classes",
    "food_pref": "veg",
    "smoking": "no",
    "guests_freq": "often",
    "languages": [
      "Urdu",
      "Pashto"
    ],
    "gender_pref": "female",
    "anchor_location": {
      "label": "Karachi University",
      "lat": 24.94,
      "lng": 67.12
    },
    "geo": {
      "lat": 24.93878,
      "lng": 67.115768,
      "source": "gps"
    },
    "raw_text": "Serve ahead operation old score girl show friend office.",
    "contact": {
      "phone": "+923939691864",
      "whatsapp": true,
      "email": "claytonhall@example.net"
    },
    "created_at": "2025-09-30T17:46:58.536627"
  },
  {
    "id": "R-0021",
    "name": "Angela",
    "role": "student",
    "city": "Karachi",
    "area": "Clifton",
    "budget_pkr": 15000,
    "sleep_schedule": "flex",
    "cleanliness": "high",
    "noise_tolerance": "medium",
    "study_habits": "home",
    "food_pref": "non-veg",
    "smoking": "yes",
    "guests_freq": "rare",
    "languages": [
      "Pashto",
      "English"
    ],
    "gender_pref": "female",
    "anchor_location": {
      "label": "Gulberg Business Hub, Lahore",
      "lat": 31.52,
      "lng": 74.356
    },
    "geo": {
      "lat": 31.522306,
      "lng": 74.356865,
      "source": "gps"
    },
    "raw_text": "Because blue whole many total prevent place here wrong.",
    "contact": {
      "phone": "+923903955112",
      "whatsapp": true,
      "email": "lopezaaron@example.org"
    },
    "created_at": "2025-09-30T17:46:58.536627"
  },
  {
    "id": "R-0022",
    "name": "Brian",
    "role": "professional",
    "city": "Rawalpindi",
    "area": "Satellite Town",
    "budget_pkr": 18000,
    "sleep_schedule": "flex",
    "cleanliness": "high",
    "noise_tolerance": "high",
    "study_habits": "library",
    "food_pref": "mixed",
    "smoking": "yes",
    "guests_freq": "often",
    "languages": [
      "English",
      "Pashto"
    ],
    "gender_pref": "female",
    "anchor_location": {
      "label": "Gulberg Business Hub, Lahore",
      "lat": 31.52,
      "lng": 74.356
    },
    "geo": {
      "lat": 31.52272,
      "lng": 74.361079,
      "source": "gps"
    },
    "raw_text": "Only science believe including west budget heart kind side own pass college.",
    "contact": {
      "phone": "+923794347764",
      "whatsapp": true,
      "email": "richardarias@example.com"
    },
    "created_at": "2025-09-30T17:46:58.536627"
  },
  {
    "id": "R-0023",
    "name": "Danielle",
    "role": "student",
    "city": "Karachi",
    "area": "Clifton",
    "budget_pkr": 15000,
    "sleep_schedule": "early_bird",
    "cleanliness": "medium",
    "noise_tolerance": "medium",
    "study_habits": "online_classes",
    "food_pref": "mixed",
    "smoking": "no",
    "guests_freq": "sometimes",
    "languages": [
      "Urdu",
      "Punjabi"
    ],
    "gender_pref": "male",
    "anchor_location": {
      "label": "Blue Area Office, Islamabad",
      "lat": 33.716,
      "lng": 73.065
    },
    "geo": {
      "lat": 33.724409,
      "lng": 73.056001,
      "source": "gps"
    },
    "raw_text": "Assume baby reach agreement ask increase future teach dog recent benefit religious.",
    "contact": {
      "phone": "+923789189296",
      "whatsapp": true,
      "email": "williamgrant@example.com"
    },
    "created_at": "2025-09-30T17:46:58.536627"
  },
  {
    "id": "R-0024",
    "name": "Donna",
    "role": "professional",
    "city": "Karachi",
    "area": "Clifton",
    "budget_pkr": 25000,
    "sleep_schedule": "night_owl",
    "cleanliness": "high",
    "noise_tolerance": "high",
    "study_habits": "home",
    "food_pref": "non-veg",
    "smoking": "yes",
    "guests_freq": "daily",
    "languages": [
      "English",
      "Punjabi"
    ],
    "gender_pref": "female",
    "anchor_location": {
      "label": "Punjab University, Lahore",
      "lat": 31.492,
      "lng": 74.3077
    },
    "geo": {
      "lat": 31.490892,
      "lng": 74.307983,
      "source": "gps"
    },
    "raw_text": "Year guess break true spend people break certain these clearly course cost.",
    "contact": {
      "phone": "+923803924904",
      "whatsapp": true,
      "email": "justin61@example.com"
    },
    "created_at": "2025-09-30T17:46:58.536627"
  },
  {
    "id": "R-0025",
    "name": "Nicole",
    "role": "student",
    "city": "Islamabad",
    "area": "Blue Area",
    "budget_pkr": 18000,
    "sleep_schedule": "early_bird",
    "cleanliness": "medium",
    "noise_tolerance": "high",
    "study_habits": "online_classes",
    "food_pref": "veg",
    "smoking": "no",
    "guests_freq": "sometimes",
    "languages": [
      "Punjabi",
      "English"
    ],
    "gender_pref": "male",
    "anchor_location": {
      "label": "Gulberg Business Hub, Lahore",
      "lat": 31.52,
      "lng": 74.356
    },
    "geo": {
      "lat": 31.52237,
      "lng": 74.352928,
      "source": "gps"
    },
    "raw_text": "Financial early deep born idea question give today factor.",
    "contact": {
      "phone": "+923565710938",
      "whatsapp": true,
      "email": "andreaharris@example.org"
    },
    "created_at": "2025-09-30T17:46:58.536627"
  },
  {
    "id": "R-0026",
    "name": "Tamara",
    "role": "professional",
    "city": "Lahore",
    "area": "Johar Town",
    "budget_pkr": 22000,
    "sleep_schedule": "night_owl",
    "cleanliness": "medium",
    "noise_tolerance": "high",
    "study_habits": "library",
    "food_pref": "veg",
    "smoking": "yes",
    "guests_freq": "often",
    "languages": [
      "Pashto",
      "Urdu"
    ],
    "gender_pref": "female",
    "anchor_location": {
      "label": "NUST, Islamabad",
      "lat": 33.6426,
      "lng": 72.9906
    },
    "geo": {
      "lat": 33.647929,
      "lng": 72.982567,
      "source": "gps"
    },
    "raw_text": "Tree candidate pressure agreement tough better boy buy must.",
    "contact": {
      "phone": "+923130192720",
      "whatsapp": true,
      "email": "rasmussennicole@example.org"
    },
    "created_at": "2025-09-30T17:46:58.539321"
  },
  {
    "id": "R-0027",
    "name": "Dana",
    "role": "professional",
    "city": "Rawalpindi",
    "area": "Satellite Town",
    "budget_pkr": 20000,
    "sleep_schedule": "night_owl",
    "cleanliness": "high",
    "noise_tolerance": "medium",
    "study_habits": "home",
    "food_pref": "veg",
    "smoking": "yes",
    "guests_freq": "often",
    "languages": [
      "Urdu",
      "English"
    ],
    "gender_pref": "any",
    "anchor_location": {
      "label": "Clifton Offices, Karachi",
      "lat": 24.813,
      "lng": 67.03
    },
    "geo": {
      "lat": 24.808978,
      "lng": 67.028879,
      "source": "gps"
    },
    "raw_text": "Outside camera sell enough agent field.",
    "contact": {
      "phone": "+923026016213",
      "whatsapp": true,
      "email": "clarkyolanda@example.net"
    },
    "created_at": "2025-09-30T17:46:58.539321"
  },
  {
    "id": "R-0028",
    "name": "Jessica",
    "role": "professional",
    "city": "Rawalpindi",
    "area": "Satellite Town",
    "budget_pkr": 22000,
    "sleep_schedule": "early_bird",
    "cleanliness": "low",
    "noise_tolerance": "medium",
    "study_habits": "home",
    "food_pref": "non-veg",
    "smoking": "yes",
    "guests_freq": "often",
    "languages": [
      "Punjabi",
      "Pashto"
    ],
    "gender_pref": "any",
    "anchor_location": {
      "label": "Clifton Offices, Karachi",
      "lat": 24.813,
      "lng": 67.03
    },
    "geo": {
      "lat": 24.813137,
      "lng": 67.034058,
      "source": "gps"
    },
    "raw_text": "Those section available more by risk possible.",
    "contact": {
      "phone": "+923655462570",
      "whatsapp": true,
      "email": "brandigoodwin@example.com"
    },
    "created_at": "2025-09-30T17:46:58.539321"
  },
  {
    "id": "R-0029",
    "name": "Dana",
    "role": "student",
    "city": "Lahore",
    "area": "Gulberg",
    "budget_pkr": 30000,
    "sleep_schedule": "early_bird",
    "cleanliness": "medium",
    "noise_tolerance": "medium",
    "study_habits": "home",
    "food_pref": "non-veg",
    "smoking": "no",
    "guests_freq": "daily",
    "languages": [
      "Punjabi",
      "Urdu"
    ],
    "gender_pref": "any",
    "anchor_location": {
      "label": "IBA, Karachi",
      "lat": 24.9323,
      "lng": 67.1123
    },
    "geo": {
      "lat": 24.938183,
      "lng": 67.120636,
      "source": "gps"
    },
    "raw_text": "May war find seem fund less voice choice half produce receive collection.",
    "contact": {
      "phone": "+923210575035",
      "whatsapp": true,
      "email": "jacqueline30@example.org"
    },
    "created_at": "2025-09-30T17:46:58.539321"
  },
  {
    "id": "R-0030",
    "name": "Nicholas",
    "role": "student",
    "city": "Lahore",
    "area": "Gulberg",
    "budget_pkr": 18000,
    "sleep_schedule": "night_owl",
    "cleanliness": "low",
    "noise_tolerance": "medium",
    "study_habits": "library",
    "food_pref": "non-veg",
    "smoking": "yes",
    "guests_freq": "often",
    "languages": [
      "Pashto",
      "English"
    ],
    "gender_pref": "any",
    "anchor_location": {
      "label": "IBA, Karachi",
      "lat": 24.9323,
      "lng": 67.1123
    },
    "geo": {
      "lat": 24.923949,
      "lng": 67.10831,
      "source": "gps"
    },
    "raw_text": "By appear challenge claim himself plan wrong bring push race tax.",
    "contact": {
      "phone": "+923738785989",
      "whatsapp": true,
      "email": "lindadrake@example.org"
    },
    "created_at": "2025-09-30T17:46:58.539321"
  }
]